Status,1771641934000,37,31,5,26,1575420030,24.40,318.34833,81.3705,1,1,1,17.4
Status,1771641934000,37,32,5,29,1575420030,26.90,45.60803,23.079533,1,1,1,19.9
Status,1771641934000,37,33,5,39,1575420030,28.40,228.30162,73.1368,1,1,1,21.4
Status,1771641934000,37,34,5,40,1575420030,28.30,254.22655,54.541008,1,1,1,21.3
Status,1771641934000,37,35,5,44,1575420030,27.30,221.19019,45.564644,1,1,1,20.3
Status,1771641934000,37,36,5,45,1575420030,34.10,130.18353,36.93362,1,1,1,27.099998
UncalMag,1771641935894,2092092485326169,-159.68579,-71.516396,-677.8686,-83.21787,-132.01299,-672.9865,3
UncalGyro,1771641935893,2092092484418774,1.4239258,2.4379613,-0.8515455,-0.0030594957,-0.002285757,-0.00064168224,3
UncalAccel,1771641935895,2092092486937784,-3.3762727,-5.9318075,-2.469393,0.0,0.0,0.0,3
OrientationDeg,1771641935893,2092092484418774,76.0,-13.0,71.0,3
GameRotationVector,1771641935893,2092092484418774,-0.48379934,-0.34046027,0.41098368,0.6936263
UncalGyro,1771641935903,2092092494082784,1.4941752,2.8118105,-0.7648027,-0.0030594957,-0.002285757,-0.00064168224,3
UncalAccel,1771641935905,2092092496601794,-3.493521,-5.1086764,-2.4023938,0.0,0.0,0.0,3
OrientationDeg,1771641935903,2092092494082784,76.0,-12.0,71.0,3
GameRotationVector,1771641935903,2092092494082784,-0.48362586,-0.32971665,0.4043589,0.7027708
Raw,1771641934414,2610023102000000,18,0.0,-1453067129312867492,0.26299190521240234,36.5174091712106,-10.114003962039996,13.431297832655405,1778,2,0.0,16399,528352340926623,35,26.1,-622.2412719726562,0.7534999847412109,16,0.0,0.0,1575420030,,,,0,0.0,1,-53.45,22.5,0.0,0.0,,,C,2092091889651366,,-17071361.70072936,19492678.357181847,-3855303.537237491,-619.0749309725472,136.99272610661174,3167.5903074467838,12844.466062487014,0.0010315576000721194,0.000000016763806343078613,0.0,-0.00000011920928955078125,0.000000059604644775390625,122880.0,-32768.0,-196608.0,-65536.0
Raw,1771641934414,2610023102000000,18,0.0,-1453067129312867492,0.26299190521240234,36.5174091712106,-10.114003962039996,13.431297832655405,1778,7,0.0,16399,528352336181518,61,21.7,-537.3417358398438,1.0794999599456787,16,0.0,0.0,1575420030,,,,0,0.0,1,-53.45,18.099999999999998,0.0,0.0,,,C,2092091889651366,,5840285.130312124,15027124.378743663,21664170.817362122,-2108.6271412219157,1555.030169118357,-565.5121065727207,-45435.444172000934,0.00018436457321513444,0.000000016763806343078613,0.0,-0.00000011920928955078125,0.000000059604644775390625,122880.0,-32768.0,-196608.0,-65536.0
Raw,1771641934414,2610023102000000,18,0.0,-1453067129312867492,0.26299190521240234,36.5174091712106,-10.114003962039996,13.431297832655405,1778,8,0.0,16399,528352346957515,24,29.5,-177.07571411132812,2.3940272331237793,16,0.0,0.0,1575420030,,,,0,0.0,1,-53.45,25.9,0.0,0.0,,,C,2092091889651366,,-8049500.089059208,19377037.673495624,15804731.447038442,-636.257896956727,-1982.8381527089296,2130.011952393043,146538.53725581753,-0.0027129508380312473,0.000000016763806343078613,0.0,-0.00000011920928955078125,0.000000059604644775390625,122880.0,-32768.0,-196608.0,-65536.0
Raw,1771641934414,2610023102000000,18,0.0,-1453067129312867492,0.26299190521240234,36.5174091712106,-10.114003962039996,13.431297832655405,1778,16,0.0,16399,528352345079888,61,22.1,271.1589660644531,1.0160000324249268,16,0.0,0.0,1575420030,,,,0,0.0,1,-53.45,18.5,0.0,0.0,,,C,2092091889651366,,-20738256.522923045,2243508.983952889,16297305.701636111,-1812.6483517512306,-1126.748728880447,-2058.781227479183,63567.31089670829,0.001878500683233142,0.000000016763806343078613,0.0,-0.00000011920928955078125,0.000000059604644775390625,122880.0,-32768.0,-196608.0,-65536.0
Raw,1771641934414,2610023102000000,18,0.0,-1453067129312867492,0.26299190521240234,36.5174091712106,-10.114003962039996,13.431297832655405,1778,26,0.0,16399,528352337756539,21,29.9,492.434326171875,1.2038530111312866,16,0.0,0.0,1575420030,,,,0,0.0,1,-53.45,26.299999999999997,0.0,0.0,,,C,2092091889651366,,-25918227.11108786,-3323436.0554974503,5595983.384105898,-608.4165276116198,-535.8132962000103,-2967.727025056095,-98988.23214635185,-0.001063071787939407,0.000000016763806343078613,0.0,-0.00000011920928955078125,0.000000059604644775390625,122880.0,-32768.0,-196608.0,-65536.0
Raw,1771641934414,2610023102000000,18,0.0,-1453067129312867492,0.26299190521240234,36.5174091712106,-10.114003962039996,13.431297832655405,1778,27,0.0,16399,528352347535972,61,22.1,197.38211059570312,1.0130000114440918,16,0.0,0.0,1575420030,,,,0,0.0,1,-53.45,18.5,0.0,0.0,,,C,2092091889651366,,-13401030.76634371,9169087.56478595,20576503.603141885,-519.134179537879,-2659.783777656651,875.9100592021213,-14198.965995802899,-0.00443183279276127,0.000000016763806343078613,0.0,-0.00000011920928955078125,0.000000059604644775390625,122880.0,-32768.0,-196608.0,-65536.0
Raw,1771641934414,2610023102000000,18,0.0,-1453067129312867492,0.26299190521240234,36.5174091712106,-10.114003962039996,13.431297832655405,1778,31,0.0,16399,528352333534960,35,25.7,708.8629760742188,0.793999969959259,16,0.0,0.0,1575420030,,,,0,0.0,1,-53.45,22.099999999999998,0.0,0.0,,,C,2092091889651366,,-23395888.535764072,8597580.47744726,-9892653.546506306,829.169680448084,-907.9238041774058,-2801.349091234911,-49691.317181042534,0.0016015459696063772,0.000000016763806343078613,0.0,-0.00000011920928955078125,0.000000059604644775390625,122880.0,-32768.0,-196608.0,-65536.0
Raw,1771641934414,2610023102000000,18,0.0,-1453067129312867492,0.26299190521240234,36.5174091712106,-10.114003962039996,13.431297832655405,1778,195,0.0,16399,528352291306137,21,30.3,-5.092880725860596,3.4963769912719727,16,0.0,0.0,1575420030,,,,0,0.0,4,-53.45,26.7,0.0,0.0,,,C,2092091889651366,,,,,,,,,,0.000000016763806343078613,0.0,-0.00000011920928955078125,0.000000059604644775390625,122880.0,-32768.0,-196608.0,-65536.0
Raw,1771641934414,2610023102000000,18,0.0,-1453067129312867492,0.26299190521240234,36.5174091712106,-10.114003962039996,13.431297832655405,1778,9,0.0,49359,20734349432536,27,28.4,194.38404846191406,0.6299999952316284,16,0.0,0.0,1600875010,,,,0,0.0,3,-56.45,24.4,3793.0751953125,10.587006568908691,,,C,2092091889651366,,,,,,,,,,0.000000016763806343078613,0.0,-0.00000011920928955078125,0.000000059604644775390625,122880.0,-32768.0,-196608.0,-65536.0
Raw,1771641934414,2610023102000000,18,0.0,-1453067129312867492,0.26299190521240234,36.5174091712106,-10.114003962039996,13.431297832655405,1778,19,0.0,49359,20734346323089,80,20.8,523.2996215820312,2.2255001068115234,16,0.0,0.0,1603687550,,,,0,0.0,3,-56.45,16.8,3793.0751953125,10.587006568908691,,,C,2092091889651366,,,,,,,,,,0.000000016763806343078613,0.0,-0.00000011920928955078125,0.000000059604644775390625,122880.0,-32768.0,-196608.0,-65536.0
Raw,1771641934414,2610023102000000,18,0.0,-1453067129312867492,0.26299190521240234,36.5174091712106,-10.114003962039996,13.431297832655405,1778,21,0.0,49359,20734340453858,31,27.8,-749.1494140625,0.6934999823570251,16,0.0,0.0,1604249980,,,,0,0.0,3,-56.45,23.8,3793.0751953125,10.587006568908691,,,C,2092091889651366,,,,,,,,,,0.000000016763806343078613,0.0,-0.00000011920928955078125,0.000000059604644775390625,122880.0,-32768.0,-196608.0,-65536.0
Raw,1771641934414,2610023102000000,18,0.0,-1453067129312867492,0.26299190521240234,36.5174091712106,-10.114003962039996,13.431297832655405,1778,59,0.0,16399,528338290207353,21,30.1,6.308497905731201,3.3056998252868652,16,0.0,0.0,1561097980,,,,0,0.0,5,-59.68,26.6,-1556.7354736328125,7.117475986480713,,,I,2092091889651366,,-32301602.61014695,27060663.69978614,-1610697.6411790445,2.8052494450944323,-2.487942255901089,-93.4663786543504,-150.01186715604805,-0.000009810503314611196,0.000000016763806343078613,0.0,-0.00000011920928955078125,0.000000059604644775390625,122880.0,-32768.0,-196608.0,-65536.0
Raw,1771641934414,2610023102000000,18,0.0,-1453067129312867492,0.26299190521240234,36.5174091712106,-10.114003962039996,13.431297832655405,1778,45,0.0,16399,528338335195351,19,31.0,463.3306579589844,2.927536725997925,16,0.0,0.0,1561097980,,,,0,0.0,5,-59.68,27.5,-1556.7354736328125,7.117475986480713,,,I,2092091889651366,,-27538168.754013974,4184694.1865329463,1906264.3848202836,-234.58870649222092,-138.59459394991626,-3061.2804195597587,-211933.59518599327,-0.0057478796516079456,0.000000016763806343078613,0.0,-0.00000011920928955078125,0.000000059604644775390625,122880.0,-32768.0,-196608.0,-65536.0
Raw,1771641934414,2610023102000000,18,0.0,-1453067129312867492,0.26299190521240234,36.5174091712106,-10.114003962039996,13.431297832655405,1778,44,0.0,16399,528338339306741,40,25.0,-424.65692138671875,0.7849999666213989,16,0.0,0.0,1561097980,,,,0,0.0,5,-59.68,21.5,-1556.7354736328125,7.117475986480713,,,I,2092091889651366,,-12795648.837442793,24442200.46934035,4064822.137773532,0.5168741603850009,-502.7860056736487,3011.235858736252,261590.65913328904,-0.002767124242382124,0.000000016763806343078613,0.0,-0.00000011920928955078125,0.000000059604644775390625,122880.0,-32768.0,-196608.0,-65536.0
Raw,1771641934414,2610023102000000,18,0.0,-1453067129312867492,0.26299190521240234,36.5174091712106,-10.114003962039996,13.431297832655405,1778,40,0.0,16399,528338291366206,40,25.1,-47.25131607055664,0.796999990940094,16,0.0,0.0,1561097980,,,,0,0.0,5,-59.68,21.6,-1556.7354736328125,7.117475986480713,,,I,2092091889651366,,-11842157.048039127,36849496.03395785,17116919.03268635,1153.4408954471382,-647.1129842947018,2179.2511186359106,-62810.572061357874,-0.0006892321107443422,0.000000016763806343078613,0.0,-0.00000011920928955078125,0.000000059604644775390625,122880.0,-32768.0,-196608.0,-65536.0
Raw,1771641934414,2610023102000000,18,0.0,-1453067129312867492,0.26299190521240234,36.5174091712106,-10.114003962039996,13.431297832655405,1778,39,0.0,16399,528338294928286,35,26.1,91.67964935302734,0.7324999570846558,16,0.0,0.0,1561097980,,,,0,0.0,5,-59.68,22.6,-1556.7354736328125,7.117475986480713,,,I,2092091889651366,,-23389634.099949002,29877103.329428166,18191588.011236917,15.368538664936636,1312.5201240158594,-2158.470625695912,-5890.755882165856,-0.00029296818411239656,0.000000016763806343078613,0.0,-0.00000011920928955078125,0.000000059604644775390625,122880.0,-32768.0,-196608.0,-65536.0
Raw,1771641934414,2610023102000000,18,0.0,-1453067129312867492,0.26299190521240234,36.5174091712106,-10.114003962039996,13.431297832655405,1778,35,0.0,16399,528338342663029,53,23.4,72.76376342773438,0.9404999613761902,16,0.0,0.0,1561097980,,,,0,0.0,5,-59.68,19.9,-1556.7354736328125,7.117475986480713,,,I,2092091889651366,,-18251958.592708483,11629793.783352481,17575087.199858796,637.903333703465,-1915.3522089622002,1930.815016745114,-83470.9504698179,-0.004459441697690636,0.000000016763806343078613,0.0,-0.00000011920928955078125,0.000000059604644775390625,122880.0,-32768.0,-196608.0,-65536.0
Raw,1771641934414,2610023102000000,18,0.0,-1453067129312867492,0.26299190521240234,36.5174091712106,-10.114003962039996,13.431297832655405,1778,29,0.0,16399,528338332499973,24,29.2,547.25048828125,4.711148262023926,16,0.0,0.0,1561097980,,,,0,0.0,5,-59.68,25.7,-1556.7354736328125,7.117475986480713,,,I,2092091889651366,,-13064649.414520888,-10520751.436572028,22294968.730094425,967.0434894127837,-2361.243885401554,-546.907638837475,169918.8707554616,0.0015125412319321185,0.000000016763806343078613,0.0,-0.00000011920928955078125,0.000000059604644775390625,122880.0,-32768.0,-196608.0,-65536.0
Raw,1771641934414,2610023102000000,18,0.0,-1453067129312867492,0.26299190521240234,36.5174091712106,-10.114003962039996,13.431297832655405,1778,26,0.0,16399,528338342302621,53,22.5,-82.0296630859375,1.0205000638961792,16,0.0,0.0,1561097980,,,,0,0.0,5,-59.68,19.0,-1556.7354736328125,7.117475986480713,,,I,2092091889651366,,-14954563.630412308,15105853.589799477,18071562.88075664,-2066.7973541855263,165.43492946314052,-1842.7667043323243,-179794.64148589718,-0.0017354846640955657,0.000000016763806343078613,0.0,-0.00000011920928955078125,0.000000059604644775390625,122880.0,-32768.0,-196608.0,-65536.0
Raw,1771641934414,2610023102000000,18,0.0,-1453067129312867492,0.26299190521240234,36.5174091712106,-10.114003962039996,13.431297832655405,1778,24,0.0,16399,528338334828798,46,24.0,-501.7991943359375,0.8524999618530273,16,0.0,0.0,1561097980,,,,0,0.0,5,-59.68,20.5,-1556.7354736328125,7.117475986480713,,,I,2092091889651366,,3869919.891813755,15978587.36477281,22524558.05707232,-2565.308784681287,293.8337646112943,234.13270610699502,-28943.579390084178,-0.009278267483750824,0.000000016763806343078613,0.0,-0.00000011920928955078125,0.000000059604644775390625,122880.0,-32768.0,-196608.0,-65536.0
Raw,1771641934414,2610023102000000,18,0.0,-1453067129312867492,0.26299190521240234,36.5174091712106,-10.114003962039996,13.431297832655405,1778,12,0.0,16399,528338331234832,61,21.6,-588.9659423828125,1.0869998931884766,16,0.0,0.0,1561097980,,,,0,0.0,5,-59.68,18.1,-1556.7354736328125,7.117475986480713,,,I,2092091889651366,,-7844474.003254636,26049469.218671065,-6140105.477133755,-385.8890533175872,597.5480737598734,3012.92417141966,31221.73988471376,0.009564162279275479,0.000000016763806343078613,0.0,-0.00000011920928955078125,0.000000059604644775390625,122880.0,-32768.0,-196608.0,-65536.0
Raw,1771641934414,2610023102000000,18,0.0,-1453067129312867492,0.26299190521240234,36.5174091712106,-10.114003962039996,13.431297832655405,1778,7,0.0,16399,528338289877295,46,24.2,-62.65288543701172,0.8600000143051147,16,0.0,0.0,1561097980,,,,0,0.0,5,-59.68,20.7,-1556.7354736328125,7.117475986480713,,,I,2092091889651366,,-6695620.623759607,39370393.60718568,14138314.216510903,837.6584405003475,-582.028584200926,2021.1681777974143,160925.09571164512,0.007479687570594251,0.000000016763806343078613,0.0,-0.00000011920928955078125,0.000000059604644775390625,122880.0,-32768.0,-196608.0,-65536.0
Raw,1771641934414,2610023102000000,18,0.0,-1453067129312867492,0.26299190521240234,36.5174091712106,-10.114003962039996,13.431297832655405,1778,6,0.0,23567,528352325786479,31,27.8,270.7068176269531,1.5691745281219482,16,0.0,0.0,1575420030,,,,0,0.0,6,-57.21,23.5,-1467.8846435546875,7.5452189445495605,,,C,2092091889651366,,5803161.320006055,27389523.700579923,9597301.203267675,18.841669309713307,964.7874169183125,-2762.068061402145,-70569.78662200131,-0.0015017227997304872,0.000000016763806343078613,0.0,-0.00000011920928955078125,0.000000059604644775390625,122880.0,-32768.0,-196608.0,-65536.0
Raw,1771641934414,2610023102000000,18,0.0,-1453067129312867492,0.26299190521240234,36.5174091712106,-10.114003962039996,13.431297832655405,1778,9,0.0,23567,528352324287691,46,25.2,83.23543548583984,2.393195629119873,16,0.0,0.0,1575420030,,,,0,0.0,6,-57.21,20.9,-1467.8846435546875,7.5452189445495605,,,C,2092091889651366,,11058361.978795225,21300906.89572596,17339900.069346756,5.550962578874117,1740.0606079542108,-2139.694791578164,-64287.479484963245,-0.0017222682217834517,0.000000016763806343078613,0.0,-0.00000011920928955078125,0.000000059604644775390625,122880.0,-32768.0,-196608.0,-65536.0
Raw,1771641934414,2610023102000000,18,0.0,-1453067129312867492,0.26299190521240234,36.5174091712106,-10.114003962039996,13.431297832655405,1778,13,0.0,23567,528352327479771,46,24.4,326.60504150390625,1.603211522102356,16,0.0,0.0,1575420030,,,,0,0.0,6,-57.21,20.099999999999998,-1467.8846435546875,7.5452189445495605,,,C,2092091889651366,,-14728129.536269253,-9612729.836874632,23812764.111786257,2144.1131051060497,-1061.1209912535753,899.5393412463966,-14645.15302155523,-0.00021140999888302758,0.000000016763806343078613,0.0,-0.00000011920928955078125,0.000000059604644775390625,122880.0,-32768.0,-196608.0,-65536.0
Raw,1771641934414,2610023102000000,18,0.0,-1453067129312867492,0.26299190521240234,36.5174091712106,-10.114003962039996,13.431297832655405,1778,21,0.0,23567,528352328653631,106,18.6,286.8011169433594,2.445500135421753,16,0.0,0.0,1575420030,,,,0,0.0,6,-57.21,14.3,-1467.8846435546875,7.5452189445495605,,,C,2092091889651366,,-26102856.784503154,-6132753.48717227,12533002.94479329,-1090.5574624978804,-629.0801448327707,-2576.9983459345167,-216799.9091913152,-0.0007988378056325018,0.000000016763806343078613,0.0,-0.00000011920928955078125,0.000000059604644775390625,122880.0,-32768.0,-196608.0,-65536.0
Raw,1771641934414,2610023102000000,18,0.0,-1453067129312867492,0.26299190521240234,36.5174091712106,-10.114003962039996,13.431297832655405,1778,23,0.0,23567,528352336184176,80,21.1,-53.23465347290039,2.1655001640319824,16,0.0,0.0,1575420030,,,,0,0.0,6,-57.21,16.8,-1467.8846435546875,7.5452189445495605,,,C,2092091889651366,,-14651412.649818972,10180850.884832626,23605344.590040352,-2016.352567474998,-1245.5590163320767,-714.3930638393026,-7769.996484252318,-0.0003994888647866901,0.000000016763806343078613,0.0,-0.00000011920928955078125,0.000000059604644775390625,122880.0,-32768.0,-196608.0,-65536.0
Raw,1771641934414,2610023102000000,18,0.0,-1453067129312867492,0.26299190521240234,36.5174091712106,-10.114003962039996,13.431297832655405,1778,26,0.0,23567,528352334563022,24,30.2,-184.2233123779297,0.5684999823570251,16,0.0,0.0,1575420030,,,,0,0.0,6,-57.21,25.9,-1467.8846435546875,7.5452189445495605,,,C,2092091889651366,,-26660835.665976368,5365275.71250683,11683226.820754424,1100.290639209244,-426.80430563426376,2709.9520781626125,67888.69609345632,0.0032417626498499885,0.000000016763806343078613,0.0,-0.00000011920928955078125,0.000000059604644775390625,122880.0,-32768.0,-196608.0,-65536.0
Raw,1771641934414,2610023102000000,18,0.0,-1453067129312867492,0.26299190521240234,36.5174091712106,-10.114003962039996,13.431297832655405,1778,31,0.0,23567,528352328819910,70,22.2,-348.5418701171875,1.0355000495910645,16,0.0,0.0,1575420030,,,,0,0.0,6,-57.21,17.9,-1467.8846435546875,7.5452189445495605,,,C,2092091889651366,,4863591.996421081,20346731.083051737,20936453.256149206,-1760.4950865947,-1145.606330054461,1522.5608208624071,-36241.74784616022,-0.0008325245507876389,0.000000016763806343078613,0.0,-0.00000011920928955078125,0.000000059604644775390625,122880.0,-32768.0,-196608.0,-65536.0
Raw,1771641934414,2610023102000000,18,0.0,-1453067129312867492,0.26299190521240234,36.5174091712106,-10.114003962039996,13.431297832655405,1778,33,0.0,23567,528352328486565,46,24.6,-571.1950073242188,3.1276798248291016,16,0.0,0.0,1575420030,,,,0,0.0,6,-57.21,20.3,-1467.8846435546875,7.5452189445495605,,,C,2092091889651366,,-23266428.445713505,17007386.026507273,-6730555.203740579,-524.4606330854996,459.57624781535594,2971.0287961754993,-1531.8947363011607,-0.00036516721456791856,0.000000016763806343078613,0.0,-0.00000011920928955078125,0.000000059604644775390625,122880.0,-32768.0,-196608.0,-65536.0
Raw,1771641934414,2610023102000000,18,0.0,-1453067129312867492,0.26299190521240234,36.5174091712106,-10.114003962039996,13.431297832655405,1778,24,0.0,16399,528338334828836,14,24.4,-502.20404052734375,1.2024999856948853,16,0.0,0.0,1575420030,,,,0,0.0,5,-57.21,17.4,-1579.8614501953125,79.3167724609375,,,P,2092091889651366,,3869919.891716272,15978587.36478397,22524558.05708121,-2565.3087846815793,293.8337646175812,234.1327060912627,-28943.57939008453,-0.009278267487388803,0.000000016763806343078613,0.0,-0.00000011920928955078125,0.000000059604644775390625,122880.0,-32768.0,-196608.0,-65536.0
Raw,1771641934414,2610023102000000,18,0.0,-1453067129312867492,0.26299190521240234,36.5174091712106,-10.114003962039996,13.431297832655405,1778,26,0.0,16399,528338342302634,14,24.4,-81.85482025146484,1.1994999647140503,16,0.0,0.0,1575420030,,,,0,0.0,5,-57.21,17.4,-1579.8614501953125,79.3167724609375,,,P,2092091889651366,,-14954563.630439224,15105853.589801583,18071562.880732685,-2066.797354182679,165.43492946449317,-1842.7667043366364,-179794.6414858972,-0.0017354846640955657,0.000000016763806343078613,0.0,-0.00000011920928955078125,0.000000059604644775390625,122880.0,-32768.0,-196608.0,-65536.0
Raw,1771641934414,2610023102000000,18,0.0,-1453067129312867492,0.26299190521240234,36.5174091712106,-10.114003962039996,13.431297832655405,1778,29,0.0,16399,528338332500044,11,26.9,547.1096801757812,1.8617236614227295,16,0.0,0.0,1575420030,,,,0,0.0,5,-57.21,19.9,-1579.8614501953125,79.3167724609375,,,P,2092091889651366,,-13064649.414452251,-10520751.436739646,22294968.730055593,967.0434894004165,-2361.2438854018346,-546.9076388665254,169918.87075546168,0.0015125412319321185,0.000000016763806343078613,0.0,-0.00000011920928955078125,0.000000059604644775390625,122880.0,-32768.0,-196608.0,-65536.0
Raw,1771641934414,2610023102000000,18,0.0,-1453067129312867492,0.26299190521240234,36.5174091712106,-10.114003962039996,13.431297832655405,1778,39,0.0,16399,528338294928319,9,28.4,91.62469482421875,1.78670334815979,16,0.0,0.0,1575420030,,,,0,0.0,5,-57.21,21.4,-1579.8614501953125,79.3167724609375,,,P,2092091889651366,,-23389634.099948432,29877103.329471536,18191588.01116569,15.368538671281158,1312.520124015754,-2158.470625699125,-5890.755882165865,-0.00029296818411239656,0.000000016763806343078613,0.0,-0.00000011920928955078125,0.000000059604644775390625,122880.0,-32768.0,-196608.0,-65536.0
Raw,1771641934414,2610023102000000,18,0.0,-1453067129312867492,0.26299190521240234,36.5174091712106,-10.114003962039996,13.431297832655405,1778,40,0.0,16399,528338291366211,9,28.3,-47.85321807861328,2.3530843257904053,16,0.0,0.0,1575420030,,,,0,0.0,5,-57.21,21.3,-1579.8614501953125,79.3167724609375,,,P,2092091889651366,,-11842157.048033452,36849496.03395457,17116919.032697257,1153.4408954466628,-647.1129842955307,2179.251118635461,-62810.572061357874,-0.0006892321107443422,0.000000016763806343078613,0.0,-0.00000011920928955078125,0.000000059604644775390625,122880.0,-32768.0,-196608.0,-65536.0
Raw,1771641934414,2610023102000000,18,0.0,-1453067129312867492,0.26299190521240234,36.5174091712106,-10.114003962039996,13.431297832655405,1778,44,0.0,16399,528338339306748,10,27.3,-425.1065368652344,0.9599999785423279,16,0.0,0.0,1575420030,,,,0,0.0,5,-57.21,20.3,-1579.8614501953125,79.3167724609375,,,P,2092091889651366,,-12795648.837442761,24442200.469336834,4064822.137794611,0.5168741610409597,-502.7860056758849,3011.235858735729,261590.65913328904,-0.002767124242382124,0.000000016763806343078613,0.0,-0.00000011920928955078125,0.000000059604644775390625,122880.0,-32768.0,-196608.0,-65536.0
Raw,1771641934414,2610023102000000,18,0.0,-1453067129312867492,0.26299190521240234,36.5174091712106,-10.114003962039996,13.431297832655405,1778,45,0.0,16399,528338335195366,5,34.1,463.2587890625,1.7812385559082031,16,0.0,0.0,1575420030,,,,0,0.0,5,-57.21,27.1,-1579.8614501953125,79.3167724609375,,,P,2092091889651366,,-27538168.75401749,4184694.1865308927,1906264.3847743887,-234.58870648715725,-138.59459395021815,-3061.280419560282,-211933.59518599333,-0.005747879622504115,0.000000016763806343078613,0.0,-0.00000011920928955078125,0.000000059604644775390625,122880.0,-32768.0,-196608.0,-65536.0
UncalMag,1771641935914,2092092505326169,-160.7472,-71.7726,-679.62537,-83.21787,-132.01299,-672.9865,3
UncalGyro,1771641935912,2092092503746742,1.567479,3.1282384,-0.6817251,-0.0030594957,-0.002285757,-0.00064168224,3
UncalAccel,1771641935915,2092092506265753,-3.534199,-4.388437,-2.0961127,0.0,0.0,0.0,3
UncalGyro,1771641935922,2092092513410753,1.599244,3.2516332,-0.61269736,-0.0030594957,-0.002285757,-0.00064168224,3
UncalAccel,1771641935924,2092092515929763,-3.522235,-3.7136607,-1.98365,0.0,0.0,0.0,3
UncalMag,1771641935934,2092092525326169,-161.345,-72.59,-683.3952,-83.21787,-132.01299,-672.9865,3
UncalAccel,1771641935934,2092092525593774,-3.5700915,-3.0652058,-1.8376877,0.0,0.0,0.0,3
UncalGyro,1771641935932,2092092523074763,1.5741985,3.1868815,-0.55955213,-0.0030594957,-0.002285757,-0.00064168224,3
OrientationDeg,1771641935912,2092092503746742,77.0,-11.0,70.0,3
GameRotationVector,1771641935912,2092092503746742,-0.4838089,-0.31744885,0.39729053,0.7122608
OrientationDeg,1771641935922,2092092513410753,77.0,-10.0,69.0,3
GameRotationVector,1771641935922,2092092513410753,-0.48404163,-0.30440816,0.39010552,0.72170424
OrientationDeg,1771641935932,2092092523074763,78.0,-8.0,68.0,3
GameRotationVector,1771641935932,2092092523074763,-0.4841446,-0.29140767,0.38309732,0.73069966
Fix,GPS,36.2122343400,140.0985108900,284.040283203125,0.91,9.935046,112.1,1771641935000,0.81826156,25.944597,2092092474651730,2.7698314,0,,,
Fix,FLP,36.2122309000,140.0986050000,276.6000061035156,1.3764772,8.275,88.42238,1771641935883,0.26008612,13.365523,2092092474651730,4.9578524,0,,,
UncalGyro,1771641935941,2092092532738774,1.4856231,2.967581,-0.49357873,-0.0030594957,-0.002285757,-0.00064168224,3
UncalAccel,1771641935944,2092092535257784,-3.644269,-2.4358935,-1.9884356,0.0,0.0,0.0,3
OrientationDeg,1771641935941,2092092532738774,78.0,-7.0,67.0,3
GameRotationVector,1771641935941,2092092532738774,-0.48408487,-0.27908584,0.37660474,0.7388787
UncalMag,1771641935954,2092092545326169,-161.528,-72.9438,-686.17676,-83.21787,-132.01299,-672.9865,3
UncalGyro,1771641935951,2092092542402784,1.3194679,2.7128506,-0.4007273,-0.0030594957,-0.002285757,-0.00064168224,3
UncalAccel,1771641935953,2092092544921794,-3.4791641,-1.8879371,-2.0410776,0.0,0.0,0.0,3
OrientationDeg,1771641935951,2092092542402784,78.0,-5.0,67.0,3
GameRotationVector,1771641935951,2092092542402784,-0.48416317,-0.26767954,0.37072316,0.74598795
OrientationDeg,1771641935961,2092092552066742,78.0,-4.0,66.0,3
GameRotationVector,1771641935961,2092092552066742,-0.4847118,-0.2571397,0.3652935,0.75199354
UncalAccel,1771641935963,2092092554585753,-3.17049,-1.457229,-1.8400806,0.0,0.0,0.0,3
UncalGyro,1771641935961,2092092552066742,1.0910045,2.5088217,-0.3017672,-0.0030594957,-0.002285757,-0.00064168224,3
UncalMag,1771641935974,2092092565326169,-161.4182,-73.4806,-687.5188,-83.21787,-132.01299,-672.9865,3
UncalGyro,1771641935970,2092092561730753,0.8063415,2.3487751,-0.21135922,-0.0030594957,-0.002285757,-0.00064168224,3
UncalAccel,1771641935973,2092092564249763,-2.8570302,-1.0935199,-1.0408778,0.0,0.0,0.0,3
OrientationDeg,1771641935970,2092092561730753,79.0,-3.0,66.0,3
GameRotationVector,1771641935970,2092092561730753,-0.4859998,-0.24744064,0.36013883,0.7568866
UncalGyro,1771641935980,2092092571394711,0.48869184,2.1752894,-0.13439025,-0.0030594957,-0.002285757,-0.00064168224,3
UncalAccel,1771641935982,2092092573913722,-2.4622145,-0.94277215,0.48095736,0.0,0.0,0.0,3
OrientationDeg,1771641935980,2092092571394711,79.0,-2.0,65.0,3
GameRotationVector,1771641935980,2092092571394711,-0.4880771,-0.23870067,0.35524476,0.7606602
UncalMag,1771641935994,2092092585326169,-161.5036,-73.505,-690.2516,-83.21787,-132.01299,-672.9865,3
UncalAccel,1771641935992,2092092583577732,-1.5553347,-1.2155539,2.8259234,0.0,0.0,0.0,3
UncalGyro,1771641935990,2092092581058722,0.16249003,1.8814635,-0.06169734,-0.0030594957,-0.002285757,-0.00064168224,3
GameRotationVector,1771641935990,2092092581058722,-0.49072358,-0.23137264,0.35090885,0.76323
OrientationDeg,1771641935990,2092092581058722,79.0,-1.0,65.0,3
UncalGyro,1771641935999,2092092590722732,-0.14966187,1.3842196,-0.015882485,-0.0030594957,-0.002285757,-0.00064168224,3
UncalAccel,1771641936002,2092092593241742,-0.06699903,-2.2157538,6.34098,0.0,0.0,0.0,3
GameRotationVector,1771641935999,2092092590722732,-0.49345455,-0.22627859,0.3475443,0.76453483
OrientationDeg,1771641935999,2092092590722732,79.0,0.0,65.0,3
UncalMag,1771641936014,2092092605326169,-160.8814,-72.6266,-690.5688,-83.21787,-132.01299,-672.9865,3
